[
    {
        "Name": "飛鳥宮跡 (明日香村)",
        "Description": "伝飛鳥板蓋宮跡。皇極天皇などの宮殿跡。",
        "Prefecture": "奈良県",
        "Latitude": 34.473056,
        "Longitude": 135.819444
    },
    {
        "Name": "藤原宮跡 (橿原市)",
        "Description": "日本初の本格的な都城、藤原京の中心施設。",
        "Prefecture": "奈良県",
        "Latitude": 34.501944,
        "Longitude": 135.807778
    },
    {
        "Name": "平城宮跡 (奈良市)",
        "Description": "奈良時代の皇居。大極殿や朱雀門が復元されている。世界遺産。",
        "Prefecture": "奈良県",
        "Latitude": 34.693889,
        "Longitude": 135.795278
    },
    {
        "Name": "難波宮跡 (大阪市)",
        "Description": "前期（孝徳天皇）と後期（聖武天皇）の宮殿跡。",
        "Prefecture": "大阪府",
        "Latitude": 34.680556,
        "Longitude": 135.520556
    },
    {
        "Name": "近江大津宮跡 (大津市)",
        "Description": "天智天皇が造営した宮殿。錦織遺跡。",
        "Prefecture": "滋賀県",
        "Latitude": 35.023611,
        "Longitude": 135.856111
    },
    {
        "Name": "恭仁宮跡 (木津川市)",
        "Description": "聖武天皇が一時期遷都した都（山城国分寺跡）。",
        "Prefecture": "京都府",
        "Latitude": 34.764444,
        "Longitude": 135.858056
    },
    {
        "Name": "紫香楽宮跡 (甲賀市)",
        "Description": "聖武天皇の宮殿跡。内裏野地区など。",
        "Prefecture": "滋賀県",
        "Latitude": 34.908056,
        "Longitude": 136.082778
    },
    {
        "Name": "長岡宮跡 (向日市)",
        "Description": "桓武天皇が平安京遷都前に造営した都。",
        "Prefecture": "京都府",
        "Latitude": 34.943056,
        "Longitude": 135.701389
    },
    {
        "Name": "平安宮跡 (京都市)",
        "Description": "平安京の大内裏跡。現在は市街地。",
        "Prefecture": "京都府",
        "Latitude": 35.020278,
        "Longitude": 135.742500
    },
    {
        "Name": "大極殿跡 (京都市)",
        "Description": "平安宮の正殿跡。千本丸太町付近。",
        "Prefecture": "京都府",
        "Latitude": 35.019444,
        "Longitude": 135.741667
    },
    {
        "Name": "豊浦宮跡 (明日香村)",
        "Description": "推古天皇の宮殿跡。向原寺。",
        "Prefecture": "奈良県",
        "Latitude": 34.476667,
        "Longitude": 135.816667
    },
    {
        "Name": "小懇田宮跡 (明日香村)",
        "Description": "推古天皇の宮殿。雷丘付近と推定。",
        "Prefecture": "奈良県",
        "Latitude": 34.481111,
        "Longitude": 135.813889
    },
    {
        "Name": "飛鳥岡本宮跡 (明日香村)",
        "Description": "舒明天皇の宮殿。",
        "Prefecture": "奈良県",
        "Latitude": 34.473056,
        "Longitude": 135.819444
    },
    {
        "Name": "飛鳥浄御原宮跡 (明日香村)",
        "Description": "天武天皇・持統天皇の宮殿。",
        "Prefecture": "奈良県",
        "Latitude": 34.473056,
        "Longitude": 135.819444
    },
    {
        "Name": "嶋宮跡 (明日香村)",
        "Description": "草壁皇子の宮殿跡。",
        "Prefecture": "奈良県",
        "Latitude": 34.468611,
        "Longitude": 135.823611
    },
    {
        "Name": "飛鳥稲淵宮殿跡 (明日香村)",
        "Description": "飛鳥川上流の宮殿遺跡。",
        "Prefecture": "奈良県",
        "Latitude": 34.458889,
        "Longitude": 135.825000
    },
    {
        "Name": "吉野宮跡 (吉野町)",
        "Description": "吉野宮滝遺跡。斉明天皇や持統天皇が訪れた離宮。",
        "Prefecture": "奈良県",
        "Latitude": 34.377778,
        "Longitude": 135.898611
    },
    {
        "Name": "保良宮跡 (大津市)",
        "Description": "淳仁天皇の宮殿。石山寺周辺説など。",
        "Prefecture": "滋賀県",
        "Latitude": 34.960556,
        "Longitude": 135.906111
    },
    {
        "Name": "由義宮跡 (八尾市)",
        "Description": "称徳天皇が造営した宮殿（西京）。",
        "Prefecture": "大阪府",
        "Latitude": 34.606944,
        "Longitude": 135.619444
    },
    {
        "Name": "河陽離宮跡 (大山崎町)",
        "Description": "嵯峨天皇などの離宮。山崎離宮。",
        "Prefecture": "京都府",
        "Latitude": 34.889722,
        "Longitude": 135.681667
    },
    {
        "Name": "水無瀬離宮跡 (島本町)",
        "Description": "後鳥羽上皇の離宮。",
        "Prefecture": "大阪府",
        "Latitude": 34.876389,
        "Longitude": 135.666944
    },
    {
        "Name": "茅渟宮跡 (泉佐野市)",
        "Description": "衣通姫伝説の宮。上之郷遺跡。",
        "Prefecture": "大阪府",
        "Latitude": 34.380556,
        "Longitude": 135.333333
    },
    {
        "Name": "大津京錦織遺跡 (大津市)",
        "Description": "大津宮の有力候補地。",
        "Prefecture": "滋賀県",
        "Latitude": 35.023611,
        "Longitude": 135.856111
    },
    {
        "Name": "穴穂部宮跡 (天理市)",
        "Description": "聖徳太子の母・穴穂部間人皇女の宮。",
        "Prefecture": "奈良県",
        "Latitude": 34.590000,
        "Longitude": 135.850000
    },
    {
        "Name": "閑院内裏跡 (京都市)",
        "Description": "平安時代後期の里内裏。",
        "Prefecture": "京都府",
        "Latitude": 35.011667,
        "Longitude": 135.753333
    },
    {
        "Name": "東三条殿跡 (京都市)",
        "Description": "藤原摂関家の邸宅・里内裏。",
        "Prefecture": "京都府",
        "Latitude": 35.011389,
        "Longitude": 135.756111
    },
    {
        "Name": "土御門殿跡 (京都市)",
        "Description": "藤原道長の邸宅・里内裏。",
        "Prefecture": "京都府",
        "Latitude": 35.023056,
        "Longitude": 135.760000
    },
    {
        "Name": "高陽院跡 (京都市)",
        "Description": "藤原頼通の邸宅・里内裏。",
        "Prefecture": "京都府",
        "Latitude": 35.014722,
        "Longitude": 135.753889
    },
    {
        "Name": "堀河院跡 (京都市)",
        "Description": "藤原基経の邸宅・里内裏。",
        "Prefecture": "京都府",
        "Latitude": 35.011944,
        "Longitude": 135.751111
    },
    {
        "Name": "冷泉院跡 (京都市)",
        "Description": "天皇の譲位後の御所。",
        "Prefecture": "京都府",
        "Latitude": 35.018056,
        "Longitude": 135.751944
    },
    {
        "Name": "朱雀院跡 (京都市)",
        "Description": "嵯峨天皇の離宮・後院。",
        "Prefecture": "京都府",
        "Latitude": 35.009444,
        "Longitude": 135.738889
    },
    {
        "Name": "淳和院跡 (京都市)",
        "Description": "淳和天皇の離宮・後院（西院）。",
        "Prefecture": "京都府",
        "Latitude": 35.006111,
        "Longitude": 135.729167
    },
    {
        "Name": "神泉苑 (京都市)",
        "Description": "平安宮付属の禁苑。",
        "Prefecture": "京都府",
        "Latitude": 35.011389,
        "Longitude": 135.746667
    },
    {
        "Name": "鳥羽離宮跡 (京都市)",
        "Description": "白河法皇が造営した院政期の離宮。",
        "Prefecture": "京都府",
        "Latitude": 34.954722,
        "Longitude": 135.742778
    },
    {
        "Name": "白河離宮跡 (京都市)",
        "Description": "白河法皇の離宮。法勝寺などがあった。",
        "Prefecture": "京都府",
        "Latitude": 35.013889,
        "Longitude": 135.783333
    },
    {
        "Name": "法住寺殿跡 (京都市)",
        "Description": "後白河法皇の御所。",
        "Prefecture": "京都府",
        "Latitude": 34.987778,
        "Longitude": 135.772500
    },
    {
        "Name": "六波羅探題跡 (京都市)",
        "Description": "平家一門の邸宅跡、後の鎌倉幕府機関。",
        "Prefecture": "京都府",
        "Latitude": 34.996944,
        "Longitude": 135.773333
    },
    {
        "Name": "室町第跡 (京都市)",
        "Description": "足利義満が造営した「花の御所」。",
        "Prefecture": "京都府",
        "Latitude": 35.031111,
        "Longitude": 135.758333
    },
    {
        "Name": "三条坊門殿跡 (京都市)",
        "Description": "足利尊氏・義詮・義満の邸宅。",
        "Prefecture": "京都府",
        "Latitude": 35.009722,
        "Longitude": 135.750556
    },
    {
        "Name": "二条良基邸跡 (京都市)",
        "Description": "二条良基の邸宅。北朝の行宮。",
        "Prefecture": "京都府",
        "Latitude": 35.021111,
        "Longitude": 135.758333
    },
    {
        "Name": "聚楽第跡 (京都市)",
        "Description": "豊臣秀吉の政庁兼邸宅。",
        "Prefecture": "京都府",
        "Latitude": 35.023889,
        "Longitude": 135.746111
    },
    {
        "Name": "伏見城跡 (京都市)",
        "Description": "豊臣秀吉の隠居城・宮殿。",
        "Prefecture": "京都府",
        "Latitude": 34.938889,
        "Longitude": 135.772500
    },
    {
        "Name": "仙洞御所 (京都市)",
        "Description": "退位した天皇（上皇・法皇）の御所。",
        "Prefecture": "京都府",
        "Latitude": 35.023056,
        "Longitude": 135.764444
    },
    {
        "Name": "大宮御所 (京都市)",
        "Description": "皇太后の御所。",
        "Prefecture": "京都府",
        "Latitude": 35.024167,
        "Longitude": 135.763333
    },
    {
        "Name": "修学院離宮 (京都市)",
        "Description": "後水尾上皇の山荘。",
        "Prefecture": "京都府",
        "Latitude": 35.053611,
        "Longitude": 135.801389
    },
    {
        "Name": "桂離宮 (京都市)",
        "Description": "八条宮家の別邸。",
        "Prefecture": "京都府",
        "Latitude": 34.984444,
        "Longitude": 135.709722
    },
    {
        "Name": "恭礼門院小一条第跡 (京都市)",
        "Description": "女院御所。",
        "Prefecture": "京都府",
        "Latitude": 35.028056,
        "Longitude": 135.754167
    },
    {
        "Name": "枇杷殿跡 (京都市)",
        "Description": "藤原仲平邸。のち里内裏。",
        "Prefecture": "京都府",
        "Latitude": 35.020833,
        "Longitude": 135.757500
    },
    {
        "Name": "京極殿跡 (京都市)",
        "Description": "藤原師実邸。土御門殿の東。",
        "Prefecture": "京都府",
        "Latitude": 35.023056,
        "Longitude": 135.766667
    },
    {
        "Name": "一条院跡 (京都市)",
        "Description": "里内裏。",
        "Prefecture": "京都府",
        "Latitude": 35.027222,
        "Longitude": 135.757778
    },
    {
        "Name": "四条宮跡 (京都市)",
        "Description": "藤原頼通の妻・対の君の邸宅。",
        "Prefecture": "京都府",
        "Latitude": 35.003611,
        "Longitude": 135.753333
    },
    {
        "Name": "高倉殿跡 (京都市)",
        "Description": "以仁王の邸宅。",
        "Prefecture": "京都府",
        "Latitude": 35.011111,
        "Longitude": 135.761667
    },
    {
        "Name": "後院跡 (京都市)",
        "Description": "嵯峨天皇の院宮。",
        "Prefecture": "京都府",
        "Latitude": 35.010556,
        "Longitude": 135.742222
    },
    {
        "Name": "小松殿跡 (京都市)",
        "Description": "平重盛の邸宅。",
        "Prefecture": "京都府",
        "Latitude": 34.996111,
        "Longitude": 135.775833
    },
    {
        "Name": "西八条殿跡 (京都市)",
        "Description": "平清盛の邸宅。",
        "Prefecture": "京都府",
        "Latitude": 34.985833,
        "Longitude": 135.745000
    },
    {
        "Name": "吉野朝宮跡 (吉野町)",
        "Description": "南朝の皇居。吉野山。",
        "Prefecture": "奈良県",
        "Latitude": 34.358056,
        "Longitude": 135.857222
    },
    {
        "Name": "吉水神社 (吉野町)",
        "Description": "後醍醐天皇の行宮（吉水院）。",
        "Prefecture": "奈良県",
        "Latitude": 34.355556,
        "Longitude": 135.860278
    },
    {
        "Name": "賀名生皇居跡 (五條市)",
        "Description": "南朝の行宮。",
        "Prefecture": "奈良県",
        "Latitude": 34.301389,
        "Longitude": 135.733056
    },
    {
        "Name": "金剛寺行宮 (河内長野市)",
        "Description": "南朝の行宮。",
        "Prefecture": "大阪府",
        "Latitude": 34.431111,
        "Longitude": 135.530556
    },
    {
        "Name": "観心寺行宮 (河内長野市)",
        "Description": "楠木正成ゆかり、後村上天皇行宮。",
        "Prefecture": "大阪府",
        "Latitude": 34.442222,
        "Longitude": 135.565833
    },
    {
        "Name": "天野行宮 (河内長野市)",
        "Description": "金剛寺とともに南朝拠点。",
        "Prefecture": "大阪府",
        "Latitude": 34.426389,
        "Longitude": 135.531667
    },
    {
        "Name": "住吉行宮跡 (大阪市)",
        "Description": "後村上天皇の行宮（住吉大社宮司津守氏宅）。",
        "Prefecture": "大阪府",
        "Latitude": 34.612500,
        "Longitude": 135.493611
    },
    {
        "Name": "男山八幡行宮跡 (八幡市)",
        "Description": "南朝の行宮。",
        "Prefecture": "京都府",
        "Latitude": 34.879444,
        "Longitude": 135.700000
    },
    {
        "Name": "栄山寺行宮跡 (五條市)",
        "Description": "南朝の行宮。",
        "Prefecture": "奈良県",
        "Latitude": 34.350833,
        "Longitude": 135.720278
    },
    {
        "Name": "船上山行宮跡 (琴浦町)",
        "Description": "後醍醐天皇の行宮。",
        "Prefecture": "鳥取県",
        "Latitude": 35.435833,
        "Longitude": 133.593611
    },
    {
        "Name": "隠岐国分寺行在所跡 (隠岐の島町)",
        "Description": "後醍醐天皇の隠岐配流地。",
        "Prefecture": "島根県",
        "Latitude": 36.216667,
        "Longitude": 133.323611
    },
    {
        "Name": "黒木御所跡 (西ノ島町)",
        "Description": "後醍醐天皇の隠岐配流地。",
        "Prefecture": "島根県",
        "Latitude": 36.088333,
        "Longitude": 133.006944
    },
    {
        "Name": "笠置山行宮跡 (笠置町)",
        "Description": "後醍醐天皇の行宮。",
        "Prefecture": "京都府",
        "Latitude": 34.757778,
        "Longitude": 135.938889
    },
    {
        "Name": "橿原宮跡 (橿原市)",
        "Description": "神武天皇の宮殿。橿原神宮。",
        "Prefecture": "奈良県",
        "Latitude": 34.488333,
        "Longitude": 135.786667
    },
    {
        "Name": "高千穂宮跡 (宮崎神宮) (宮崎市)",
        "Description": "神武天皇の宮殿伝承地。",
        "Prefecture": "宮崎県",
        "Latitude": 31.939722,
        "Longitude": 131.423056
    },
    {
        "Name": "高津宮跡 (大阪市)",
        "Description": "仁徳天皇の宮殿。高津宮神社。",
        "Prefecture": "大阪府",
        "Latitude": 34.668056,
        "Longitude": 135.513889
    },
    {
        "Name": "長柄豊碕宮跡 (大阪市)",
        "Description": "孝徳天皇の宮殿。難波宮付近。",
        "Prefecture": "大阪府",
        "Latitude": 34.680556,
        "Longitude": 135.520556
    },
    {
        "Name": "大和朝倉宮跡 (桜井市)",
        "Description": "雄略天皇の宮殿。",
        "Prefecture": "奈良県",
        "Latitude": 34.520000,
        "Longitude": 135.875000
    },
    {
        "Name": "磐余稚桜宮跡 (桜井市)",
        "Description": "履中天皇・清寧天皇の宮殿。",
        "Prefecture": "奈良県",
        "Latitude": 34.508333,
        "Longitude": 135.850000
    },
    {
        "Name": "磯城瑞籬宮跡 (桜井市)",
        "Description": "崇神天皇の宮殿。志貴御県坐神社。",
        "Prefecture": "奈良県",
        "Latitude": 34.525556,
        "Longitude": 135.860556
    },
    {
        "Name": "纏向珠城宮跡 (桜井市)",
        "Description": "垂仁天皇の宮殿。",
        "Prefecture": "奈良県",
        "Latitude": 34.538889,
        "Longitude": 135.837222
    },
    {
        "Name": "泊瀬朝倉宮跡 (桜井市)",
        "Description": "雄略天皇。",
        "Prefecture": "奈良県",
        "Latitude": 34.520000,
        "Longitude": 135.875000
    },
    {
        "Name": "訳語田幸玉宮跡 (桜井市)",
        "Description": "敏達天皇の宮殿。",
        "Prefecture": "奈良県",
        "Latitude": 34.516667,
        "Longitude": 135.866667
    },
    {
        "Name": "小治田宮跡 (明日香村)",
        "Description": "推古天皇。",
        "Prefecture": "奈良県",
        "Latitude": 34.481111,
        "Longitude": 135.813889
    },
    {
        "Name": "日向高屋宮跡 (西都市)",
        "Description": "彦火火出見尊。",
        "Prefecture": "宮崎県",
        "Latitude": 32.115000,
        "Longitude": 131.385000
    },
    {
        "Name": "吾平山上陵 (鹿屋市)",
        "Description": "ウガヤフキアエズの御陵だが宮跡伝承も。",
        "Prefecture": "鹿児島県",
        "Latitude": 31.333333,
        "Longitude": 130.866667
    },
    {
        "Name": "宇佐宮 (宇佐市)",
        "Description": "宇佐神宮。第二の宗廟。",
        "Prefecture": "大分県",
        "Latitude": 33.526111,
        "Longitude": 131.375278
    },
    {
        "Name": "大宰府政庁跡 (太宰府市)",
        "Description": "「遠の朝廷」。宮殿形式の建物跡。",
        "Prefecture": "福岡県",
        "Latitude": 33.515278,
        "Longitude": 130.512222
    },
    {
        "Name": "多賀城政庁跡 (多賀城市)",
        "Description": "陸奥国府。宮殿形式。",
        "Prefecture": "宮城県",
        "Latitude": 38.303333,
        "Longitude": 140.990278
    },
    {
        "Name": "斎宮跡 (明和町)",
        "Description": "斎王の宮殿。",
        "Prefecture": "三重県",
        "Latitude": 34.539722,
        "Longitude": 136.611111
    },
    {
        "Name": "斎院跡 (京都市)",
        "Description": "賀茂斎院の御所。",
        "Prefecture": "京都府",
        "Latitude": 35.021111,
        "Longitude": 135.733333
    },
    {
        "Name": "離宮八幡宮 (大山崎町)",
        "Description": "嵯峨天皇離宮跡。",
        "Prefecture": "京都府",
        "Latitude": 34.891667,
        "Longitude": 135.681111
    },
    {
        "Name": "香椎宮 (福岡市)",
        "Description": "仲哀天皇・神功皇后の橿日宮跡。",
        "Prefecture": "福岡県",
        "Latitude": 33.656389,
        "Longitude": 130.455278
    },
    {
        "Name": "福岡城肥前堀跡 (福岡市)",
        "Description": "鴻臚館跡。外交施設だが宮殿様式。",
        "Prefecture": "福岡県",
        "Latitude": 33.585278,
        "Longitude": 130.384722
    },
    {
        "Name": "阿古耶聡宮跡 (宮崎市)",
        "Description": "宮崎神宮境内。",
        "Prefecture": "宮崎県",
        "Latitude": 31.939722,
        "Longitude": 131.423056
    },
    {
        "Name": "浮島行宮跡 (北九州市)",
        "Description": "景行天皇。",
        "Prefecture": "福岡県",
        "Latitude": 33.866667,
        "Longitude": 130.733333
    },
    {
        "Name": "豊浦宮跡 (下関市)",
        "Description": "仲哀天皇。忌宮神社。",
        "Prefecture": "山口県",
        "Latitude": 33.983333,
        "Longitude": 130.950000
    },
    {
        "Name": "橿日宮跡 (福岡市)",
        "Description": "香椎宮。",
        "Prefecture": "福岡県",
        "Latitude": 33.656389,
        "Longitude": 130.455278
    },
    {
        "Name": "浜離宮 (中央区)",
        "Description": "将軍の別邸、のち皇室離宮。浜離宮恩賜庭園。",
        "Prefecture": "東京都",
        "Latitude": 35.659722,
        "Longitude": 139.763333
    },
    {
        "Name": "芝離宮 (港区)",
        "Description": "旧芝離宮恩賜庭園。",
        "Prefecture": "東京都",
        "Latitude": 35.655278,
        "Longitude": 139.757222
    },
    {
        "Name": "赤坂離宮 (港区)",
        "Description": "迎賓館。",
        "Prefecture": "東京都",
        "Latitude": 35.680278,
        "Longitude": 139.729167
    },
    {
        "Name": "霞ヶ関離宮跡 (千代田区)",
        "Description": "現国会前庭など。",
        "Prefecture": "東京都",
        "Latitude": 35.676667,
        "Longitude": 139.749167
    },
    {
        "Name": "名古屋離宮跡 (名古屋市)",
        "Description": "名古屋城。",
        "Prefecture": "愛知県",
        "Latitude": 35.183889,
        "Longitude": 136.900278
    },
    {
        "Name": "二条離宮跡 (京都市)",
        "Description": "二条城。",
        "Prefecture": "京都府",
        "Latitude": 35.014167,
        "Longitude": 135.748056
    },
    {
        "Name": "武庫離宮跡 (神戸市)",
        "Description": "須磨離宮公園。",
        "Prefecture": "兵庫県",
        "Latitude": 34.650000,
        "Longitude": 135.116667
    },
    {
        "Name": "函館御殿 (函館市)",
        "Description": "五稜郭内の奉行所。宮殿的。",
        "Prefecture": "北海道",
        "Latitude": 41.796944,
        "Longitude": 140.756944
    },
    {
        "Name": "首里城正殿跡 (那覇市)",
        "Description": "琉球国王の宮殿。",
        "Prefecture": "沖縄県",
        "Latitude": 26.218333,
        "Longitude": 127.715278
    },
    {
        "Name": "中城御殿跡 (那覇市)",
        "Description": "琉球王世子の宮殿。旧県立博物館。",
        "Prefecture": "沖縄県",
        "Latitude": 26.218056,
        "Longitude": 127.713889
    },
    {
        "Name": "識名園 (那覇市)",
        "Description": "琉球王家の別邸。",
        "Prefecture": "沖縄県",
        "Latitude": 26.204444,
        "Longitude": 127.715556
    },
    {
        "Name": "御茶屋御殿跡 (那覇市)",
        "Description": "琉球王家の別邸。",
        "Prefecture": "沖縄県",
        "Latitude": 26.218056,
        "Longitude": 127.718889
    },
    {
        "Name": "西洞院殿跡 (京都市)",
        "Description": "里内裏。",
        "Prefecture": "京都府",
        "Latitude": 35.006111,
        "Longitude": 135.756667
    },
    {
        "Name": "勘解由小路殿跡 (京都市)",
        "Description": "里内裏。",
        "Prefecture": "京都府",
        "Latitude": 35.021111,
        "Longitude": 135.753889
    },
    {
        "Name": "万里小路殿跡 (京都市)",
        "Description": "里内裏。",
        "Prefecture": "京都府",
        "Latitude": 35.016667,
        "Longitude": 135.761111
    },
    {
        "Name": "花山院跡 (京都市)",
        "Description": "花山天皇。",
        "Prefecture": "京都府",
        "Latitude": 35.023056,
        "Longitude": 135.766667
    },
    {
        "Name": "冷泉殿跡 (京都市)",
        "Description": "冷泉院とは別。",
        "Prefecture": "京都府",
        "Latitude": 35.021111,
        "Longitude": 135.756111
    },
    {
        "Name": "大炊御門殿跡 (京都市)",
        "Description": "藤原師実。",
        "Prefecture": "京都府",
        "Latitude": 35.015000,
        "Longitude": 135.761667
    },
    {
        "Name": "近衛殿跡 (京都市)",
        "Description": "近衛家。",
        "Prefecture": "京都府",
        "Latitude": 35.024722,
        "Longitude": 135.758333
    },
    {
        "Name": "久我邸跡 (京都市)",
        "Description": "久我家。",
        "Prefecture": "京都府",
        "Latitude": 35.024722,
        "Longitude": 135.753333
    },
    {
        "Name": "今出川殿跡 (京都市)",
        "Description": "西園寺家・足利義満。",
        "Prefecture": "京都府",
        "Latitude": 35.029444,
        "Longitude": 135.758333
    },
    {
        "Name": "小一条殿跡 (京都市)",
        "Description": "里内裏。",
        "Prefecture": "京都府",
        "Latitude": 35.026667,
        "Longitude": 135.754167
    },
    {
        "Name": "五条殿跡 (京都市)",
        "Description": "鳥羽上皇。",
        "Prefecture": "京都府",
        "Latitude": 34.996111,
        "Longitude": 135.753333
    },
    {
        "Name": "若松殿跡 (京都市)",
        "Description": "里内裏。",
        "Prefecture": "京都府",
        "Latitude": 35.013056,
        "Longitude": 135.753333
    },
    {
        "Name": "泉殿跡 (京都市)",
        "Description": "里内裏。",
        "Prefecture": "京都府",
        "Latitude": 35.013056,
        "Longitude": 135.756111
    },
    {
        "Name": "大宮殿跡 (京都市)",
        "Description": "大宮御所。",
        "Prefecture": "京都府",
        "Latitude": 35.023611,
        "Longitude": 135.748333
    },
    {
        "Name": "中山邸跡 (京都市)",
        "Description": "明治天皇生誕地。",
        "Prefecture": "京都府",
        "Latitude": 35.021111,
        "Longitude": 135.761667
    },
    {
        "Name": "九条邸跡 (京都市)",
        "Description": "九条家。",
        "Prefecture": "京都府",
        "Latitude": 35.021111,
        "Longitude": 135.763333
    },
    {
        "Name": "桂宮邸跡 (京都市)",
        "Description": "京都御苑内。",
        "Prefecture": "京都府",
        "Latitude": 35.023056,
        "Longitude": 135.761667
    },
    {
        "Name": "有栖川宮邸跡 (京都市)",
        "Description": "京都御苑内。",
        "Prefecture": "京都府",
        "Latitude": 35.021667,
        "Longitude": 135.758333
    },
    {
        "Name": "凝華洞跡 (京都市)",
        "Description": "後西天皇。",
        "Prefecture": "京都府",
        "Latitude": 35.020556,
        "Longitude": 135.760000
    }
]